Codigo_distrito,Nombre_distrito,Codigo_barrio,Nombre_barrio,Españoles_0_15_años,Españoles_16_64_años,Españoles_65_mas_años,Total_Españoles,Extranjeros_0_15_años,Extranjeros_16_64_años,Extranjeros_65_mas_años,Total_Extranjeros,Total_personas,Año,Latitud ,Longitud
1,Centro,11,Palacio,1547,13447,4226,19220,278,3894,200,4372,23593,2020,40.41693878,-3.718042236
1,Centro,12,Embajadores,2950,24817,6078,33845,963,11880,359,13202,47048,2020,40.41107777,-3.703573122
1,Centro,13,Cortes,621,5833,1693,8147,151,2358,115,2624,10771,2020,40.41590962,-3.698176901
1,Centro,14,Justicia,1154,10150,2675,13979,265,3625,152,4042,18021,2020,40.42372487,-3.696153568
1,Centro,15,Universidad,2001,18871,4933,25805,502,6829,282,7613,33418,2020,40.42659076,-3.708216164
1,Centro,16,Sol,376,3818,1197,5391,110,2025,96,2231,7622,2020,40.41830574,-3.705371802
2,Arganzuela,21,Imperial,2507,13701,4939,21147,130,1542,89,1761,22908,2020,40.40414744,-3.718012535
2,Arganzuela,22,Acacias,3626,22026,8520,34172,224,2408,118,2750,36922,2020,40.40184369,-3.70730731
2,Arganzuela,23,Chopera,1899,11057,4446,17402,275,2501,109,2885,20287,2020,40.39476145,-3.699616248
2,Arganzuela,24,Legazpi,3610,12997,1776,18383,144,1218,65,1427,19810,2020,40.38934077,-3.686816155
2,Arganzuela,25,Delicias,3583,16582,4686,24851,325,2932,125,3382,28233,2020,40.39706357,-3.690456946
2,Arganzuela,26,Palos de Moguer,2225,14708,5256,22189,317,3625,157,4099,26289,2020,40.40415134,-3.695308006
2,Arganzuela,27,Atocha,235,790,123,1148,4,57,2,63,1211,2020,40.40274032,-3.688177947
3,Retiro,31,Pacífico,3227,18997,8342,30566,270,2771,160,3201,33767,2020,40.40406672,-3.67840479
3,Retiro,32,Adelfas,2367,11005,4016,17388,152,1174,71,1397,18785,2020,40.40162378,-3.670517136
3,Retiro,33,Estrella,2925,12183,7154,22262,106,906,80,1092,23354,2020,40.41237553,-3.666253718
3,Retiro,34,Ibiza,2452,11507,5260,19219,275,2332,167,2774,21993,2020,40.41908803,-3.674417336
3,Retiro,35,Los Jerónimos,759,3719,1769,6247,77,652,70,799,7046,2020,40.41397694,-3.685503758
3,Retiro,36,Niño Jesús,2201,8270,4055,14526,117,735,83,935,15461,2020,40.41157409,-3.673287882
4,Salamanca,41,Recoletos,1557,7938,3468,12963,280,2356,247,2883,15846,2020,40.42492822,-3.685719609
4,Salamanca,42,Goya,2844,15739,6827,25410,368,3878,289,4535,29945,2020,40.42509854,-3.674486022
4,Salamanca,43,Fuente del Berro,2080,11396,5014,18490,235,2376,148,2759,21249,2020,40.42532859,-3.664001882
4,Salamanca,44,Guindalera,4491,23040,9892,37423,344,4313,226,4883,42306,2020,40.43630674,-3.66653976
4,Salamanca,45,Lista,2100,11034,4875,18009,210,2842,150,3202,21211,2020,40.43140714,-3.676307495
4,Salamanca,46,Castellana,1793,8577,3815,14185,205,2707,200,3112,17297,2020,40.43348152,-3.684552837
5,Chamartin,51,El Viso,2294,9490,3639,15423,155,1704,151,2010,17433,2020,40.44514093,-3.685298004
5,Chamartin,52,Prosperidad,3769,20096,9073,32938,335,3429,238,4002,36940,2020,40.44359358,-3.669811488
5,Chamartin,53,Ciudad Jardín,2113,10214,4235,16562,219,1987,125,2331,18893,2020,40.44872948,-3.672972488
5,Chamartin,54,Hispanoamérica,4503,17378,7650,29531,237,2043,231,2511,32042,2020,40.45552562,-3.6771435
5,Chamartin,55,Nueva España,4053,13591,4975,22619,233,1935,228,2396,25015,2020,40.46296601,-3.678451861
5,Chamartin,56,Castilla,2237,9587,3780,15604,134,1371,118,1623,17228,2020,40.47398532,-3.679434358
6,Tetuan,61,Bellas Vistas,2790,14758,5149,22697,761,6181,256,7198,29895,2020,40.45294,-3.708256385
6,Tetuan,62,Cuatro Caminos,3236,18875,7645,29756,459,4714,263,5436,35192,2020,40.45189878,-3.697045193
6,Tetuan,63,Castillejos,1698,11083,4738,17519,290,2844,182,3316,20835,2020,40.46134697,-3.693356225
6,Tetuan,64,Almenara,2382,12678,4288,19348,380,3113,162,3655,23003,2020,40.47103588,-3.694080974
6,Tetuan,65,Valdeacederas,2691,13910,3614,20215,715,5425,190,6330,26545,2020,40.46718587,-3.7041086
6,Tetuan,66,Berruguete,2494,12899,4039,19432,694,5520,197,6411,25843,2020,40.45985193,-3.704826662
7,Chamberí,71,Gaztambide,2019,12658,5746,20423,200,2569,137,2906,23329,2020,40.43542661,-3.714663465
7,Chamberí,72,Arapiles,2334,13615,5742,21691,230,2638,145,3013,24704,2020,40.43518428,-3.707955628
7,Chamberí,73,Trafalgar,2283,14038,5118,21439,260,3147,177,3584,25023,2020,40.43363365,-3.701411104
7,Chamberí,74,Almagro,2043,10489,4532,17064,221,2352,201,2774,19838,2020,40.43360636,-3.693021998
7,Chamberí,75,Ríos Rosas,2861,15214,6276,24351,288,2790,140,3218,27569,2020,40.4427227,-3.698042305
7,Chamberí,76,Vallehermoso,2172,11081,5570,18823,131,1378,71,1580,20403,2020,40.44318403,-3.712532749
8,Fuencarral-El Pardo,81,El Pardo,396,2059,872,3327,20,118,7,145,3472,2020,40.51912143,-3.775335377
8,Fuencarral-El Pardo,82,Fuentelarreina,539,1675,843,3057,23,202,26,251,3308,2020,40.48026345,-3.740247143
8,Fuencarral-El Pardo,83,Peñagrande,5473,24224,11499,41196,432,3080,230,3742,44938,2020,40.47944107,-3.727305098
8,Fuencarral-El Pardo,84,Pilar,4386,23438,13256,41080,690,4785,300,5775,46855,2020,40.4775353,-3.709172991
8,Fuencarral-El Pardo,85,La Paz,3571,17257,10968,31796,222,1477,149,1848,33644,2020,40.48076631,-3.696817465
8,Fuencarral-El Pardo,86,Valverde,14059,35241,7188,56488,1298,6534,348,8180,64668,2020,40.50020625,-3.677182408
8,Fuencarral-El Pardo,87,Mirasierra,7209,20162,4888,32259,238,1419,130,1787,34046,2020,40.49712907,-3.720451855
8,Fuencarral-El Pardo,88,El Goloso,5955,10537,1394,17886,190,900,66,1156,19042,2020,40.55638538,-3.703303014
9,Moncloa-Aravaca,91,Casa de Campo,1227,7481,3213,11921,87,1116,77,1280,13201,2020,40.42071623,-3.755457443
9,Moncloa-Aravaca,92,Argüelles,2203,13004,5863,21070,241,2943,169,3353,24423,2020,40.42843437,-3.716990154
9,Moncloa-Aravaca,93,Ciudad Universitaria,1937,8745,4060,14742,96,1470,86,1652,16395,2020,40.46089498,-3.73758365
9,Moncloa-Aravaca,94,Valdezarza,3397,15947,7397,26741,439,3093,132,3664,30405,2020,40.46557332,-3.716540901
9,Moncloa-Aravaca,95,Valdemarín,1752,3793,744,6289,94,540,34,668,6957,2020,40.46812302,-3.777237777
9,Moncloa-Aravaca,96,El Plantío,503,1509,521,2533,20,215,31,266,2799,2020,40.47084192,-3.823747736
9,Moncloa-Aravaca,97,Aravaca,5015,15582,4079,24676,412,2278,137,2827,27503,2020,40.45769825,-3.78123267
10,Latina,101,Los Cármenes,2141,9802,2920,14863,353,2443,77,2873,17736,2020,40.40114149,-3.736801015
10,Latina,102,Puerta del Ángel,3942,21257,8403,33602,892,7597,271,8760,42362,2020,40.41000702,-3.732608671
10,Latina,103,Lucero,3748,18350,7870,29968,846,5730,239,6815,36783,2020,40.40062093,-3.751121549
10,Latina,104,Aluche,5981,30221,19386,55588,1650,9768,409,11827,67418,2020,40.39422525,-3.755636923
10,Latina,105,Campamento,2047,9132,4507,15686,519,3509,132,4160,19848,2020,40.38549591,-3.804051056
10,Latina,106,Cuatro Vientos,1300,3807,346,5453,48,350,30,428,5881,2020,40.36810659,-3.785060096
10,Latina,107,Águilas,5358,26185,14100,45643,891,5300,277,6468,52111,2020,40.38279952,-3.772154148
11,Carabanchel,111,Comillas,2043,11206,5193,18442,525,3866,168,4559,23001,2020,40.39229819,-3.713622777
11,Carabanchel,112,Opañel,3127,16299,6725,26151,887,6436,206,7529,33681,2020,40.38845582,-3.725538062
11,Carabanchel,113,San Isidro,4233,19939,7273,31445,1065,7254,259,8578,40023,2020,40.39494027,-3.731601857
11,Carabanchel,114,Vista Alegre,4466,21346,10185,35997,1525,9728,352,11605,47602,2020,40.38489751,-3.745784379
11,Carabanchel,115,Puerta Bonita,4089,16901,6175,27165,1173,7336,258,8767,35932,2020,40.38127292,-3.7415969
11,Carabanchel,116,Buenavista,8551,26259,6323,41133,1018,5622,237,6877,48010,2020,40.36773534,-3.751816416
11,Carabanchel,117,Abrantes,4222,15322,5354,24898,914,5923,212,7049,31947,2020,40.3754323,-3.731427779
12,Usera,121,Orcasitas,3619,13002,4336,20957,322,1803,90,2215,23173,2020,40.36930591,-3.715305938
12,Usera,122,Orcasur,1983,7847,1958,11788,333,1958,75,2366,14154,2020,40.36998198,-3.700980503
12,Usera,123,San Fermín,3486,12378,3247,19111,720,3986,184,4890,24001,2020,40.37201824,-3.690394281
12,Usera,124,Almendrales,2481,9891,3330,15702,848,5458,171,6477,22179,2020,40.38391174,-3.69987246
12,Usera,125,Moscardó,2464,11930,4815,19209,1025,6708,185,7918,27128,2020,40.38967101,-3.707229957
12,Usera,126,Zofío,1425,6820,2425,10670,532,3133,76,3741,14412,2020,40.38189691,-3.715139499
12,Usera,127,Pradolongo,1601,6930,2819,11350,899,5456,142,6497,17847,2020,40.37821403,-3.70965523
13,Puente de Vallecas,131,Entrevías,4264,18645,6561,29470,878,4995,173,6046,35516,2020,40.37997822,-3.670066296
13,Puente de Vallecas,132,San Diego,4450,19856,5611,29917,1995,11673,314,13982,43899,2020,40.38555985,-3.667801576
13,Puente de Vallecas,133,Palomeras Bajas,4346,23664,6546,34556,892,5269,193,6354,40910,2020,40.3843869,-3.662482758
13,Puente de Vallecas,134,Palomeras Sureste,5163,24713,7669,37545,811,4608,198,5617,43164,2020,40.38865742,-3.643562632
13,Puente de Vallecas,135,Portazgo,3360,15000,6013,24373,638,3815,142,4595,28968,2020,40.39147186,-3.648804416
13,Puente de Vallecas,136,Numancia,4842,24055,8547,37444,1438,9225,303,10966,48410,2020,40.40128296,-3.662853164
14,Moratalaz,141,Pavones,1006,4920,2247,8173,99,1000,83,1182,9355,2020,40.40112689,-3.633398618
14,Moratalaz,142,Horcajo,1032,4522,568,6122,40,242,31,313,6435,2020,40.40845436,-3.628744528
14,Moratalaz,143,Marroquina,2493,15472,7419,25384,182,1560,105,1847,27232,2020,40.41076704,-3.647064962
14,Moratalaz,144,Media Legua,1830,9351,4893,16074,228,1577,72,1877,17951,2020,40.41277352,-3.657583383
14,Moratalaz,145,Fontarrón,1814,8678,4291,14783,366,2258,112,2736,17519,2020,40.40118068,-3.646893857
14,Moratalaz,146,Vinateros,1698,8401,4901,15000,270,1752,100,2122,17122,2020,40.40580793,-3.642890426
15,Ciudad Lineal,151,Ventas,4529,24616,11047,40192,967,7419,313,8699,48891,2020,40.42414921,-3.649460062
15,Ciudad Lineal,152,Pueblo Nuevo,6373,31928,13264,51565,1402,10149,405,11956,63521,2020,40.42815401,-3.637866734
15,Ciudad Lineal,153,Quintana,2266,12605,5279,20150,551,4278,172,5001,25151,2020,40.43615611,-3.648158762
15,Ciudad Lineal,154,Concepción,2211,10991,4871,18073,363,2564,152,3079,21153,2020,40.44138909,-3.647127163
15,Ciudad Lineal,155,San Pascual,2051,9746,4725,16522,199,1301,85,1585,18107,2020,40.44285992,-3.653142425
15,Ciudad Lineal,156,San Juan Bautista,1729,6949,2682,11360,225,1075,64,1364,12725,2020,40.45094745,-3.65784012
15,Ciudad Lineal,157,Colina,921,3485,1419,5825,81,559,54,694,6519,2020,40.45817111,-3.660500494
15,Ciudad Lineal,158,Atalaya,230,817,348,1395,22,126,12,160,1555,2020,40.46538473,-3.664363569
15,Ciudad Lineal,159,Costillares,3250,12976,4787,21013,144,964,124,1232,22245,2020,40.47598548,-3.670914191
16,Hortaleza,161,Palomas,1230,3880,995,6105,164,533,37,734,6839,2020,40.45246976,-3.616840182
16,Hortaleza,162,Piovera,2186,8480,2012,12678,493,1635,133,2261,14939,2020,40.45641298,-3.63387767
16,Hortaleza,163,Canillas,4370,21914,10597,36881,560,3178,219,3957,40838,2020,40.46517171,-3.646071698
16,Hortaleza,164,Pinar del Rey,5707,27525,13636,46868,849,5157,287,6293,53162,2020,40.47330755,-3.645718872
16,Hortaleza,165,Apóstol Santiago,1676,9122,3163,13961,214,1290,90,1594,15555,2020,40.47898477,-3.658594367
16,Hortaleza,166,Valdefuentes,15515,35839,4243,55597,1167,4791,376,6334,61931,2020,40.48282313,-3.634280649
17,Villaverde,171,Villaverde Alto,5787,23249,7402,36438,1626,8416,269,10311,46749,2020,40.34363176,-3.710011007
17,Villaverde,172,San Cristóbal,2240,6892,1840,10972,940,4817,168,5925,16898,2020,40.34096627,-3.68867801
17,Villaverde,173,Butarque,4362,11092,1619,17073,495,2330,127,2952,20026,2020,40.34103245,-3.675427448
17,Villaverde,174,Los Rosales,4574,19612,6144,30330,1123,6429,225,7777,38107,2020,40.35688042,-3.688301814
17,Villaverde,175,Ángeles,3232,15447,8079,26758,812,4778,190,5780,32538,2020,40.35689353,-3.699407857
18,Villa de Vallecas,181,Casco Histórico de Vallecas,5613,21524,6487,33624,1218,5854,260,7332,40956,2020,40.35149313,-3.618788785
18,Villa de Vallecas,182,Santa Eugenia,2473,14281,5307,22061,408,2113,102,2623,24684,2020,40.38401167,-3.614301754
18,Villa de Vallecas,183,Ensanche de Vallecas,11374,30046,1978,43398,728,4474,272,5474,48872,2020,40.36723667,-3.598334171
19,Vicálvaro,191,Casco Histórico de Vicálvaro,4159,16853,7211,28223,1156,6084,203,7443,35666,2020,40.38861379,-3.574439089
19,Vicálvaro,192,Valdebernardo,2191,12367,2002,16560,157,1049,68,1274,17834,2020,40.39916665,-3.608006966
19,Vicálvaro,193,Valderrivas,4977,11447,1031,17455,98,549,48,695,18150,2020,40.40352452,-3.674670051
19,Vicálvaro,194,El Cañaveral,564,1584,69,2217,22,152,7,181,2398,2020,40.40147731,-3.550886512
20,San Blas-Canillejas,201,Simancas,3652,15421,4259,23332,690,4476,199,5365,28698,2020,40.43520507,-3.624913311
20,San Blas-Canillejas,202,Hellín,977,4956,2058,7991,195,1106,50,1351,9342,2020,40.4311922,-3.61696085
20,San Blas-Canillejas,203,Amposta,1069,4536,1594,7199,245,1387,43,1675,8874,2020,40.42639957,-3.622608836
20,San Blas-Canillejas,204,Arcos,3346,14317,4220,21883,381,2320,107,2808,24692,2020,40.42062544,-3.617729735
20,San Blas-Canillejas,205,Rosas,4856,20641,4411,29908,282,1514,89,1885,31794,2020,40.4278625,-3.597513752
20,San Blas-Canillejas,206,Rejas,2985,9208,1787,13980,466,2718,135,3319,17299,2020,40.44501198,-3.578503664
20,San Blas-Canillejas,207,Canillejas,2995,14749,6484,24228,733,3911,175,4819,29047,2020,40.4438735,-3.614945433
20,San Blas-Canillejas,208,El Salvador,1188,6970,2368,10526,123,771,55,949,11476,2020,40.44554578,-3.632380014
21,Barajas,211,Alameda de Osuna,3148,10416,5015,18579,154,987,100,1241,19820,2020,40.45621134,-3.591402968
21,Barajas,212,Aeropuerto,223,962,277,1462,55,373,10,438,1900,2020,40.48041062,-3.557864731
21,Barajas,213,Casco Histórico de Barajas,719,4105,1382,6206,187,1246,44,1477,7683,2020,40.4751537,-3.578636314
21,Barajas,214,Timón,2448,7758,1253,11459,228,1063,103,1394,12853,2020,40.47671694,-3.592465453
21,Barajas,215,Corralejos,1815,4690,746,7251,65,413,25,503,7754,2020,40.46573908,-3.607084051
